{"type": "FeatureCollection", "features": [{"type": "Feature", "geometry": {"type": "Point", "coordinates": [100.12591934157159, 14.803521576770748]}, "properties": {"name": "DOEMBANG NANGBUAT", "name_th": "เดิมบางนางบวช", "capacity_mw": 0.0, "status": "operating"}}, {"type": "Feature", "geometry": {"type": "Point", "coordinates": [100.6517110691404, 14.792035841676974]}, "properties": {"name": "LOP BURI 1", "name_th": "ลพบุรี 1", "capacity_mw": 0.0, "status": "operating"}}, {"type": "Feature", "geometry": {"type": "Point", "coordinates": [100.43726849980462, 14.875743322269566]}, "properties": {"name": "SING BURI", "name_th": "สิงห์บุรี", "capacity_mw": 0.0, "status": "operating"}}, {"type": "Feature", "geometry": {"type": "Point", "coordinates": [100.52932205054971, 14.815198763460225]}, "properties": {"name": "THA WUNG", "name_th": "ท่าวุ้ง", "capacity_mw": 0.0, "status": "operating"}}, {"type": "Feature", "geometry": {"type": "Point", "coordinates": [101.10384969963707, 15.207034100383497]}, "properties": {"name": "CHAI BADAN", "name_th": "ชัยบาดาล", "capacity_mw": 0.0, "status": "operating"}}, {"type": "Feature", "geometry": {"type": "Point", "coordinates": [100.62300269996194, 14.849042099896057]}, "properties": {"name": "LOP BURI 2", "name_th": "ลพบุรี 2", "capacity_mw": 0.0, "status": "operating"}}, {"type": "Feature", "geometry": {"type": "Point", "coordinates": [100.34403905776041, 14.612461815539914]}, "properties": {"name": "ANG THONG 2", "name_th": "อ่างทอง 2", "capacity_mw": 0.0, "status": "operating"}}, {"type": "Feature", "geometry": {"type": "Point", "coordinates": [100.55329538852003, 14.364351256045504]}, "properties": {"name": "AYUTTHAYA 1", "name_th": "อยุธยา 1", "capacity_mw": 0.0, "status": "operating"}}, {"type": "Feature", "geometry": {"type": "Point", "coordinates": [100.60364320908654, 14.382173245193327]}, "properties": {"name": "AYUTTHAYA 2", "name_th": "อยุธยา 2", "capacity_mw": 0.0, "status": "operating"}}, {"type": "Feature", "geometry": {"type": "Point", "coordinates": [100.13045859239377, 14.490600135242781]}, "properties": {"name": "SUPHAN BURI", "name_th": "สุพรรณบุรี", "capacity_mw": 0.0, "status": "operating"}}, {"type": "Feature", "geometry": {"type": "Point", "coordinates": [100.56609844993532, 14.42462331067331]}, "properties": {"name": "AYUTTHAYA 3", "name_th": "อยุธยา 3", "capacity_mw": 0.0, "status": "operating"}}, {"type": "Feature", "geometry": {"type": "Point", "coordinates": [100.58670378085958, 14.212463191468524]}, "properties": {"name": "BANG PA-IN 1", "name_th": "บางปะอิน 1", "capacity_mw": 0.0, "status": "operating"}}, {"type": "Feature", "geometry": {"type": "Point", "coordinates": [100.6114431396827, 14.198232477338488]}, "properties": {"name": "BANG PA-IN 2", "name_th": "บางปะอิน 2", "capacity_mw": 0.0, "status": "operating"}}, {"type": "Feature", "geometry": {"type": "Point", "coordinates": [100.76926369558149, 14.579232094322387]}, "properties": {"name": "THALAN 1", "name_th": "ท่าลาน 1", "capacity_mw": 0.0, "status": "operating"}}, {"type": "Feature", "geometry": {"type": "Point", "coordinates": [100.46578919965964, 14.583560800127836]}, "properties": {"name": "ANG THONG 1", "name_th": "อ่างทอง 1", "capacity_mw": 0.0, "status": "operating"}}, {"type": "Feature", "geometry": {"type": "Point", "coordinates": [101.04739221948807, 14.274462223881958]}, "properties": {"name": "NAKHON NAYOK", "name_th": "นครนายก", "capacity_mw": 0.0, "status": "operating"}}, {"type": "Feature", "geometry": {"type": "Point", "coordinates": [100.78391129430288, 14.752223335084706]}, "properties": {"name": "PHRA PHUTTHABAT", "name_th": "พระพุทธบาท", "capacity_mw": 0.0, "status": "operating"}}, {"type": "Feature", "geometry": {"type": "Point", "coordinates": [100.91471475753276, 14.513278442147778]}, "properties": {"name": "SARABURI 1", "name_th": "สระบุรี 1", "capacity_mw": 0.0, "status": "operating"}}, {"type": "Feature", "geometry": {"type": "Point", "coordinates": [100.86506297232962, 14.409324951785925]}, "properties": {"name": "SARABURI 4", "name_th": "สระบุรี 4", "capacity_mw": 0.0, "status": "operating"}}, {"type": "Feature", "geometry": {"type": "Point", "coordinates": [100.80294679883498, 14.58354188423656]}, "properties": {"name": "THALAN 3", "name_th": "ท่าลาน 3", "capacity_mw": 0.0, "status": "operating"}}, {"type": "Feature", "geometry": {"type": "Point", "coordinates": [100.87977760155076, 14.35638494932931]}, "properties": {"name": "SARABURI 5", "name_th": "สระบุรี 5", "capacity_mw": 0.0, "status": "operating"}}, {"type": "Feature", "geometry": {"type": "Point", "coordinates": [100.91017592139484, 14.711283072492522]}, "properties": {"name": "SARABURI 6", "name_th": "สระบุรี 6", "capacity_mw": 0.0, "status": "operating"}}, {"type": "Feature", "geometry": {"type": "Point", "coordinates": [101.08239343590088, 14.61405658963688]}, "properties": {"name": "SARABURI 2", "name_th": "สระบุรี 2", "capacity_mw": 0.0, "status": "operating"}}, {"type": "Feature", "geometry": {"type": "Point", "coordinates": [100.6987225182522, 13.936904026844912]}, "properties": {"name": "LAM LUK KA", "name_th": "ลำลูกกา", "capacity_mw": 0.0, "status": "operating"}}, {"type": "Feature", "geometry": {"type": "Point", "coordinates": [100.61065436428474, 14.115683430849284]}, "properties": {"name": "NAVA NAKHON", "name_th": "นวนคร", "capacity_mw": 0.0, "status": "operating"}}, {"type": "Feature", "geometry": {"type": "Point", "coordinates": [100.56837645159814, 13.975259311557588]}, "properties": {"name": "RANGSIT", "name_th": "รังสิต", "capacity_mw": 0.0, "status": "operating"}}, {"type": "Feature", "geometry": {"type": "Point", "coordinates": [100.34184590013673, 13.97429310034411]}, "properties": {"name": "SAI NOI", "name_th": "ไทรน้อย", "capacity_mw": 0.0, "status": "operating"}}, {"type": "Feature", "geometry": {"type": "Point", "coordinates": [101.79211205265051, 14.02834063284223]}, "properties": {"name": "KABIN BURI", "name_th": "กบินทร์บุรี", "capacity_mw": 0.0, "status": "operating"}}, {"type": "Feature", "geometry": {"type": "Point", "coordinates": [101.54355151941144, 13.839422316912463]}, "properties": {"name": "PRACHIN BURI 2", "name_th": "ปราจีนบุรี 2", "capacity_mw": 0.0, "status": "operating"}}, {"type": "Feature", "geometry": {"type": "Point", "coordinates": [102.24191788489132, 13.769484278417222]}, "properties": {"name": "WATTHANA NAKHON", "name_th": "วัฒนานคร", "capacity_mw": 0.0, "status": "operating"}}, {"type": "Feature", "geometry": {"type": "Point", "coordinates": [101.02554077516838, 13.506710323027127]}, "properties": {"name": "BANG PAKONG", "name_th": "บางปะกง", "capacity_mw": 0.0, "status": "operating"}}, {"type": "Feature", "geometry": {"type": "Point", "coordinates": [101.03257997130768, 13.626473214737896]}, "properties": {"name": "CHACHOENGSAO", "name_th": "ฉะเชิงเทรา", "capacity_mw": 0.0, "status": "operating"}}, {"type": "Feature", "geometry": {"type": "Point", "coordinates": [101.15923614666858, 13.60956131872832]}, "properties": {"name": "CHACHOENGSAO 2", "name_th": "ฉะเชิงเทรา 2", "capacity_mw": 0.0, "status": "operating"}}, {"type": "Feature", "geometry": {"type": "Point", "coordinates": [100.99378669961068, 13.569968300074542]}, "properties": {"name": "KHLONG MAI", "name_th": "คลองใหม่", "capacity_mw": 0.0, "status": "operating"}}, {"type": "Feature", "geometry": {"type": "Point", "coordinates": [101.31836154241603, 14.14616632421837]}, "properties": {"name": "PRACHIN BURI 1", "name_th": "ปราจีนบุรี 1", "capacity_mw": 0.0, "status": "operating"}}, {"type": "Feature", "geometry": {"type": "Point", "coordinates": [100.92878473144593, 13.126232989156488]}, "properties": {"name": "AO PHAI", "name_th": "อ่าวไผ่", "capacity_mw": 0.0, "status": "operating"}}, {"type": "Feature", "geometry": {"type": "Point", "coordinates": [101.22231530366699, 13.218843022272452]}, "properties": {"name": "BAN BUENG", "name_th": "บ้านบึง", "capacity_mw": 0.0, "status": "operating"}}, {"type": "Feature", "geometry": {"type": "Point", "coordinates": [101.21694141039411, 13.222721424266567]}, "properties": {"name": "BAN BUENG 2", "name_th": "บ้านบึง 2", "capacity_mw": 0.0, "status": "operating"}}, {"type": "Feature", "geometry": {"type": "Point", "coordinates": [100.92451364767555, 12.939520875108334]}, "properties": {"name": "BANG LAMUNG", "name_th": "บางละมุง", "capacity_mw": 0.0, "status": "operating"}}, {"type": "Feature", "geometry": {"type": "Point", "coordinates": [101.07449804182565, 13.07495523376871]}, "properties": {"name": "BO WIN", "name_th": "บ่อวิน", "capacity_mw": 0.0, "status": "operating"}}, {"type": "Feature", "geometry": {"type": "Point", "coordinates": [100.99138815136423, 13.339480740805765]}, "properties": {"name": "CHON BURI", "name_th": "ชลบุรี", "capacity_mw": 0.0, "status": "operating"}}, {"type": "Feature", "geometry": {"type": "Point", "coordinates": [101.00114890460014, 13.20407813970648]}, "properties": {"name": "CHON BURI 2", "name_th": "ชลบุรี 2", "capacity_mw": 0.0, "status": "operating"}}, {"type": "Feature", "geometry": {"type": "Point", "coordinates": [101.06661619476296, 13.446108473368856]}, "properties": {"name": "PHAN THONG", "name_th": "พานทอง", "capacity_mw": 0.0, "status": "operating"}}, {"type": "Feature", "geometry": {"type": "Point", "coordinates": [100.94223061912571, 13.16115966343662]}, "properties": {"name": "SI RACHA", "name_th": "ศรีราชา", "capacity_mw": 0.0, "status": "operating"}}, {"type": "Feature", "geometry": {"type": "Point", "coordinates": [100.97854537856344, 13.008341858447643]}, "properties": {"name": "BANG LAMUNG 2", "name_th": "บางละมุง 2", "capacity_mw": 0.0, "status": "operating"}}, {"type": "Feature", "geometry": {"type": "Point", "coordinates": [100.92162740004376, 12.857307400274376]}, "properties": {"name": "CHOM THIEN", "name_th": "จอมเทียน", "capacity_mw": 0.0, "status": "operating"}}, {"type": "Feature", "geometry": {"type": "Point", "coordinates": [101.24868241370024, 12.788063936303423]}, "properties": {"name": "BAN KHAI", "name_th": "บ้านค่าย", "capacity_mw": 0.0, "status": "operating"}}, {"type": "Feature", "geometry": {"type": "Point", "coordinates": [101.19424289987697, 12.98714399783426]}, "properties": {"name": "PLUAK DAENG", "name_th": "ปลวกแดง", "capacity_mw": 0.0, "status": "operating"}}, {"type": "Feature", "geometry": {"type": "Point", "coordinates": [102.11723057717343, 12.6669966284264]}, "properties": {"name": "CHANTHABURI", "name_th": "จันทบุรี", "capacity_mw": 0.0, "status": "operating"}}, {"type": "Feature", "geometry": {"type": "Point", "coordinates": [102.4904613665521, 12.281388392236678]}, "properties": {"name": "TRAT", "name_th": "ตราด", "capacity_mw": 0.0, "status": "operating"}}, {"type": "Feature", "geometry": {"type": "Point", "coordinates": [101.2725095999293, 12.689657600113023]}, "properties": {"name": "RAYONG 1", "name_th": "ระยอง 1", "capacity_mw": 0.0, "status": "operating"}}, {"type": "Feature", "geometry": {"type": "Point", "coordinates": [101.16036986942154, 12.757607296665908]}, "properties": {"name": "RAYONG 2", "name_th": "ระยอง 2", "capacity_mw": 0.0, "status": "operating"}}, {"type": "Feature", "geometry": {"type": "Point", "coordinates": [101.13949299197775, 12.721294343253767]}, "properties": {"name": "RAYONG 3", "name_th": "ระยอง 3", "capacity_mw": 0.0, "status": "operating"}}, {"type": "Feature", "geometry": {"type": "Point", "coordinates": [101.10881871550822, 12.735249468056493]}, "properties": {"name": "RAYONG 4", "name_th": "ระยอง 4", "capacity_mw": 0.0, "status": "operating"}}, {"type": "Feature", "geometry": {"type": "Point", "coordinates": [101.66714660371079, 12.807584717993054]}, "properties": {"name": "KLAENG", "name_th": "แกลง", "capacity_mw": 0.0, "status": "operating"}}, {"type": "Feature", "geometry": {"type": "Point", "coordinates": [99.85455925875709, 19.85352748387368]}, "properties": {"name": "CHIANG RAI", "name_th": "เชียงราย", "capacity_mw": 0.0, "status": "operating"}}, {"type": "Feature", "geometry": {"type": "Point", "coordinates": [99.91820835358249, 20.198358671190014]}, "properties": {"name": "MAE CHAN", "name_th": "แม่จัน", "capacity_mw": 0.0, "status": "operating"}}, {"type": "Feature", "geometry": {"type": "Point", "coordinates": [99.87013672694637, 19.216478937618994]}, "properties": {"name": "PHAYAO", "name_th": "พะเยา", "capacity_mw": 0.0, "status": "operating"}}, {"type": "Feature", "geometry": {"type": "Point", "coordinates": [100.22622930788376, 19.73592558683093]}, "properties": {"name": "THOENG", "name_th": "เทิง", "capacity_mw": 0.0, "status": "operating"}}, {"type": "Feature", "geometry": {"type": "Point", "coordinates": [98.9987153061879, 18.812389349034294]}, "properties": {"name": "CHIANG MAI 2", "name_th": "เชียงใหม่ 2", "capacity_mw": 0.0, "status": "operating"}}, {"type": "Feature", "geometry": {"type": "Point", "coordinates": [98.87223661975779, 19.087649509841984]}, "properties": {"name": "MAE TAENG", "name_th": "แม่แตง", "capacity_mw": 0.0, "status": "operating"}}, {"type": "Feature", "geometry": {"type": "Point", "coordinates": [99.00841009994883, 18.76848220003955]}, "properties": {"name": "CHIANG MAI 1", "name_th": "เชียงใหม่ 1", "capacity_mw": 0.0, "status": "operating"}}, {"type": "Feature", "geometry": {"type": "Point", "coordinates": [98.94382969978889, 18.716962299734714]}, "properties": {"name": "CHIANG MAI 3", "name_th": "เชียงใหม่ 3", "capacity_mw": 0.0, "status": "operating"}}, {"type": "Feature", "geometry": {"type": "Point", "coordinates": [98.69013965075301, 18.438671627988462]}, "properties": {"name": "CHOM THONG", "name_th": "จอมทอง", "capacity_mw": 0.0, "status": "operating"}}, {"type": "Feature", "geometry": {"type": "Point", "coordinates": [99.04043645358746, 18.6326373257048]}, "properties": {"name": "LAMPHUN 1", "name_th": "ลำพูน 1", "capacity_mw": 0.0, "status": "operating"}}, {"type": "Feature", "geometry": {"type": "Point", "coordinates": [99.05182019971008, 18.65247339996121]}, "properties": {"name": "LAMPHUN 2", "name_th": "ลำพูน 2", "capacity_mw": 0.0, "status": "operating"}}, {"type": "Feature", "geometry": {"type": "Point", "coordinates": [99.45221450042168, 18.248653000399884]}, "properties": {"name": "LAMPANG 1", "name_th": "ลำปาง 1", "capacity_mw": 0.0, "status": "operating"}}, {"type": "Feature", "geometry": {"type": "Point", "coordinates": [99.56841370016032, 18.35861399977336]}, "properties": {"name": "LAMPANG 2", "name_th": "ลำปาง 2", "capacity_mw": 0.0, "status": "operating"}}, {"type": "Feature", "geometry": {"type": "Point", "coordinates": [99.71199509475608, 18.294060628731508]}, "properties": {"name": "MAE MOH 2", "name_th": "แม่เมาะ 2", "capacity_mw": 0.0, "status": "operating"}}, {"type": "Feature", "geometry": {"type": "Point", "coordinates": [100.75341009237913, 18.742327026590292]}, "properties": {"name": "NAN", "name_th": "น่าน", "capacity_mw": 0.0, "status": "operating"}}, {"type": "Feature", "geometry": {"type": "Point", "coordinates": [100.13968808304556, 18.116981555721065]}, "properties": {"name": "PHRAE", "name_th": "แพร่", "capacity_mw": 0.0, "status": "operating"}}, {"type": "Feature", "geometry": {"type": "Point", "coordinates": [100.0807181993896, 17.608994258429878]}, "properties": {"name": "UTTARADIT", "name_th": "อุตรดิตถ์", "capacity_mw": 0.0, "status": "operating"}}, {"type": "Feature", "geometry": {"type": "Point", "coordinates": [101.22180444548479, 16.76052962752511]}, "properties": {"name": "LOM SAK", "name_th": "หล่มสัก", "capacity_mw": 0.0, "status": "operating"}}, {"type": "Feature", "geometry": {"type": "Point", "coordinates": [100.38490611287645, 16.46095866961029]}, "properties": {"name": "PHICHIT", "name_th": "พิจิตร", "capacity_mw": 0.0, "status": "operating"}}, {"type": "Feature", "geometry": {"type": "Point", "coordinates": [101.08527341510248, 16.33791534281245]}, "properties": {"name": "PHETCHABUN", "name_th": "เพชรบูรณ์", "capacity_mw": 0.0, "status": "operating"}}, {"type": "Feature", "geometry": {"type": "Point", "coordinates": [100.23839819431043, 16.835921841910572]}, "properties": {"name": "PHITSANULOK 1", "name_th": "พิษณุโลก 1", "capacity_mw": 0.0, "status": "operating"}}, {"type": "Feature", "geometry": {"type": "Point", "coordinates": [100.15663077312395, 16.937936233633724]}, "properties": {"name": "PHITSANULOK 2", "name_th": "พิษณุโลก 2", "capacity_mw": 0.0, "status": "operating"}}, {"type": "Feature", "geometry": {"type": "Point", "coordinates": [99.48628015958145, 16.505762990996242]}, "properties": {"name": "KAMPHAENGPHET", "name_th": "กำแพงเพชร", "capacity_mw": 0.0, "status": "operating"}}, {"type": "Feature", "geometry": {"type": "Point", "coordinates": [99.87206750038783, 16.630658700057]}, "properties": {"name": "LAN KRABU", "name_th": "ลานกระบือ", "capacity_mw": 0.0, "status": "operating"}}, {"type": "Feature", "geometry": {"type": "Point", "coordinates": [99.89496920015993, 17.339195000074003]}, "properties": {"name": "SAWANKHALOK", "name_th": "สวรรคโลก", "capacity_mw": 0.0, "status": "operating"}}, {"type": "Feature", "geometry": {"type": "Point", "coordinates": [99.82474578031736, 17.033947794941792]}, "properties": {"name": "SUKHOTHAI", "name_th": "สุโขทัย", "capacity_mw": 0.0, "status": "operating"}}, {"type": "Feature", "geometry": {"type": "Point", "coordinates": [99.13235443122387, 16.88447331833253]}, "properties": {"name": "TAK 1", "name_th": "ตาก 1", "capacity_mw": 0.0, "status": "operating"}}, {"type": "Feature", "geometry": {"type": "Point", "coordinates": [99.2382073718646, 17.62550293788689]}, "properties": {"name": "THOEN", "name_th": "เถิน", "capacity_mw": 0.0, "status": "operating"}}, {"type": "Feature", "geometry": {"type": "Point", "coordinates": [98.59962828890886, 16.71888971188964]}, "properties": {"name": "MAE SOT", "name_th": "แม่สอด", "capacity_mw": 0.0, "status": "operating"}}, {"type": "Feature", "geometry": {"type": "Point", "coordinates": [99.1416893244378, 16.810082596865072]}, "properties": {"name": "TAK 2", "name_th": "ตาก 2", "capacity_mw": 0.0, "status": "operating"}}, {"type": "Feature", "geometry": {"type": "Point", "coordinates": [100.99233352731542, 15.83066151215751]}, "properties": {"name": "BUENG SAM PHAN", "name_th": "บึงสามพัน", "capacity_mw": 0.0, "status": "operating"}}, {"type": "Feature", "geometry": {"type": "Point", "coordinates": [100.39283089974509, 16.024917699886164]}, "properties": {"name": "BANG MUN NAK", "name_th": "บางมูลนาก", "capacity_mw": 0.0, "status": "operating"}}, {"type": "Feature", "geometry": {"type": "Point", "coordinates": [100.1049289586964, 15.300837185465266]}, "properties": {"name": "MANOROM", "name_th": "มโนรมย์", "capacity_mw": 0.0, "status": "operating"}}, {"type": "Feature", "geometry": {"type": "Point", "coordinates": [100.10056350559272, 15.705770435148663]}, "properties": {"name": "NAKHON SAWAN", "name_th": "นครสวรรค์", "capacity_mw": 0.0, "status": "operating"}}, {"type": "Feature", "geometry": {"type": "Point", "coordinates": [100.2861696037555, 15.248766734806578]}, "properties": {"name": "TAKHLI 2", "name_th": "ตาคลี 2", "capacity_mw": 0.0, "status": "operating"}}, {"type": "Feature", "geometry": {"type": "Point", "coordinates": [99.7899023420467, 15.982064939139217]}, "properties": {"name": "SALOKBAT", "name_th": "สลกบาตร", "capacity_mw": 0.0, "status": "operating"}}, {"type": "Feature", "geometry": {"type": "Point", "coordinates": [100.43059099941959, 15.604018711385098]}, "properties": {"name": "THA TAKO", "name_th": "ท่าตะโก", "capacity_mw": 0.0, "status": "operating"}}, {"type": "Feature", "geometry": {"type": "Point", "coordinates": [104.69551275815628, 16.54463831407225]}, "properties": {"name": "MUKDAHAN 1", "name_th": "มุกดาหาร 1", "capacity_mw": 0.0, "status": "operating"}}, {"type": "Feature", "geometry": {"type": "Point", "coordinates": [104.70262597714844, 16.609655650904557]}, "properties": {"name": "MUKDAHAN 2", "name_th": "มุกดาหาร 2", "capacity_mw": 0.0, "status": "operating"}}, {"type": "Feature", "geometry": {"type": "Point", "coordinates": [104.7575873381495, 17.384110841016355]}, "properties": {"name": "NAKHON PHANOM", "name_th": "นครพนม", "capacity_mw": 0.0, "status": "operating"}}, {"type": "Feature", "geometry": {"type": "Point", "coordinates": [104.1176949153179, 17.267529525970925]}, "properties": {"name": "SAKON NAKHON 2", "name_th": "สกลนคร 2", "capacity_mw": 0.0, "status": "operating"}}, {"type": "Feature", "geometry": {"type": "Point", "coordinates": [104.68957931567547, 16.932715655391846]}, "properties": {"name": "THAT PHANOM", "name_th": "ธาตุพนม", "capacity_mw": 0.0, "status": "operating"}}, {"type": "Feature", "geometry": {"type": "Point", "coordinates": [103.63478869975668, 18.317625200221517]}, "properties": {"name": "BUENG KAN", "name_th": "บึงกาฬ", "capacity_mw": 0.0, "status": "operating"}}, {"type": "Feature", "geometry": {"type": "Point", "coordinates": [103.20577073973101, 17.360314904927165]}, "properties": {"name": "NONG HAN", "name_th": "หนองหาน", "capacity_mw": 0.0, "status": "operating"}}, {"type": "Feature", "geometry": {"type": "Point", "coordinates": [103.71178590015643, 17.36957650016069]}, "properties": {"name": "PHANG KHON", "name_th": "พังโคน", "capacity_mw": 0.0, "status": "operating"}}, {"type": "Feature", "geometry": {"type": "Point", "coordinates": [104.1192716836556, 17.14272312360691]}, "properties": {"name": "SAKON NAKHON 1", "name_th": "สกลนคร 1", "capacity_mw": 0.0, "status": "operating"}}, {"type": "Feature", "geometry": {"type": "Point", "coordinates": [101.73425219154771, 17.40320727797783]}, "properties": {"name": "LOEI", "name_th": "เลย", "capacity_mw": 0.0, "status": "operating"}}, {"type": "Feature", "geometry": {"type": "Point", "coordinates": [102.40389601803278, 17.230316569214995]}, "properties": {"name": "NONG BUA LAM PHU", "name_th": "หนองบัวลำภู", "capacity_mw": 0.0, "status": "operating"}}, {"type": "Feature", "geometry": {"type": "Point", "coordinates": [102.75619564346611, 17.820807350321058]}, "properties": {"name": "NONG KHAI", "name_th": "หนองคาย", "capacity_mw": 0.0, "status": "operating"}}, {"type": "Feature", "geometry": {"type": "Point", "coordinates": [102.78993676061226, 17.44996823844241]}, "properties": {"name": "UDON THANI 1", "name_th": "อุดรธานี 1", "capacity_mw": 0.0, "status": "operating"}}, {"type": "Feature", "geometry": {"type": "Point", "coordinates": [102.8516080312605, 17.374339550714673]}, "properties": {"name": "UDON THANI 2", "name_th": "อุดรธานี 2", "capacity_mw": 0.0, "status": "operating"}}, {"type": "Feature", "geometry": {"type": "Point", "coordinates": [102.93727614253923, 17.350742502600166]}, "properties": {"name": "UDON THANI 3", "name_th": "อุดรธานี 3", "capacity_mw": 0.0, "status": "operating"}}, {"type": "Feature", "geometry": {"type": "Point", "coordinates": [102.06406389964215, 16.56012829168731]}, "properties": {"name": "CHUM PHAE", "name_th": "ชุมแพ", "capacity_mw": 0.0, "status": "operating"}}, {"type": "Feature", "geometry": {"type": "Point", "coordinates": [102.72391388918554, 16.079650000016205]}, "properties": {"name": "BAN PHAI", "name_th": "บ้านไผ่", "capacity_mw": 0.0, "status": "operating"}}, {"type": "Feature", "geometry": {"type": "Point", "coordinates": [102.87272540410078, 16.418204946476635]}, "properties": {"name": "KHON KAEN 2", "name_th": "ขอนแก่น 2", "capacity_mw": 0.0, "status": "operating"}}, {"type": "Feature", "geometry": {"type": "Point", "coordinates": [102.74689287519679, 16.416815739536872]}, "properties": {"name": "KHON KAEN 3", "name_th": "ขอนแก่น 3", "capacity_mw": 0.0, "status": "operating"}}, {"type": "Feature", "geometry": {"type": "Point", "coordinates": [101.75682375012505, 15.782948057337478]}, "properties": {"name": "NONG BUA RAWE", "name_th": "หนองบัวระเหว", "capacity_mw": 0.0, "status": "operating"}}, {"type": "Feature", "geometry": {"type": "Point", "coordinates": [102.57749499987472, 15.808450999875609]}, "properties": {"name": "PHON", "name_th": "พล", "capacity_mw": 0.0, "status": "operating"}}, {"type": "Feature", "geometry": {"type": "Point", "coordinates": [101.4407468337948, 17.662183992324223]}, "properties": {"name": "THA LI", "name_th": "ท่าลี่", "capacity_mw": 0.0, "status": "operating"}}, {"type": "Feature", "geometry": {"type": "Point", "coordinates": [102.81533579988256, 16.412239400319294]}, "properties": {"name": "KHON KAEN 1", "name_th": "ขอนแก่น 1", "capacity_mw": 0.0, "status": "operating"}}, {"type": "Feature", "geometry": {"type": "Point", "coordinates": [101.72782649885471, 15.463554581180444]}, "properties": {"name": "BAMNET NARONG", "name_th": "บำเหน็จณรงค์", "capacity_mw": 0.0, "status": "operating"}}, {"type": "Feature", "geometry": {"type": "Point", "coordinates": [102.08907323074844, 15.829378512313223]}, "properties": {"name": "CHAIYAPHUM", "name_th": "ชัยภูมิ", "capacity_mw": 0.0, "status": "operating"}}, {"type": "Feature", "geometry": {"type": "Point", "coordinates": [103.54756479957743, 16.379384899943336]}, "properties": {"name": "KALASIN", "name_th": "กาฬสินธุ์", "capacity_mw": 0.0, "status": "operating"}}, {"type": "Feature", "geometry": {"type": "Point", "coordinates": [103.31458272204806, 16.181530091725424]}, "properties": {"name": "MAHA SARAKHAM", "name_th": "มหาสารคาม", "capacity_mw": 0.0, "status": "operating"}}, {"type": "Feature", "geometry": {"type": "Point", "coordinates": [103.17662879984368, 15.551267300429817]}, "properties": {"name": "PHAYAKKHAPHUM PHISAI", "name_th": "พยัคฆภูมิพิสัย", "capacity_mw": 0.0, "status": "operating"}}, {"type": "Feature", "geometry": {"type": "Point", "coordinates": [103.73304683733859, 16.673552684763955]}, "properties": {"name": "SOMDET", "name_th": "สมเด็จ", "capacity_mw": 0.0, "status": "operating"}}, {"type": "Feature", "geometry": {"type": "Point", "coordinates": [104.63071270026727, 15.80865880044549]}, "properties": {"name": "AMNAT CHAROEN", "name_th": "อำนาจเจริญ", "capacity_mw": 0.0, "status": "operating"}}, {"type": "Feature", "geometry": {"type": "Point", "coordinates": [104.66319320046533, 14.727105200402494]}, "properties": {"name": "KANTHARALAK", "name_th": "กันทรลักษ์", "capacity_mw": 0.0, "status": "operating"}}, {"type": "Feature", "geometry": {"type": "Point", "coordinates": [103.90710770032442, 16.29687630002465]}, "properties": {"name": "PHON THONG", "name_th": "โพนทอง", "capacity_mw": 0.0, "status": "operating"}}, {"type": "Feature", "geometry": {"type": "Point", "coordinates": [103.64773796478215, 16.07852618385691]}, "properties": {"name": "ROI ET", "name_th": "ร้อยเอ็ด", "capacity_mw": 0.0, "status": "operating"}}, {"type": "Feature", "geometry": {"type": "Point", "coordinates": [104.34561060022817, 15.072914300364038]}, "properties": {"name": "SI SA KET", "name_th": "ศรีสะเกษ", "capacity_mw": 0.0, "status": "operating"}}, {"type": "Feature", "geometry": {"type": "Point", "coordinates": [104.89154880039875, 15.153426213615237]}, "properties": {"name": "UBON RATCHATHANI 2", "name_th": "อุบลราชธานี 2", "capacity_mw": 0.0, "status": "operating"}}, {"type": "Feature", "geometry": {"type": "Point", "coordinates": [104.69939679451953, 15.327825297071701]}, "properties": {"name": "UBON RATCHATHANI 3", "name_th": "อุบลราชธานี 3", "capacity_mw": 0.0, "status": "operating"}}, {"type": "Feature", "geometry": {"type": "Point", "coordinates": [104.19257048764057, 15.798120657374945]}, "properties": {"name": "YASOTHON", "name_th": "ยโสธร", "capacity_mw": 0.0, "status": "operating"}}, {"type": "Feature", "geometry": {"type": "Point", "coordinates": [104.85883180490924, 15.277463295752497]}, "properties": {"name": "UBON RATCHATHANI 1", "name_th": "อุบลราชธานี 1", "capacity_mw": 0.0, "status": "operating"}}, {"type": "Feature", "geometry": {"type": "Point", "coordinates": [103.10751792890473, 15.023973948243688]}, "properties": {"name": "BURI RAM", "name_th": "บุรีรัมย์", "capacity_mw": 0.0, "status": "operating"}}, {"type": "Feature", "geometry": {"type": "Point", "coordinates": [103.05551562279649, 14.662049672887504]}, "properties": {"name": "PRAKHON CHAI", "name_th": "ประโคนชัย", "capacity_mw": 0.0, "status": "operating"}}, {"type": "Feature", "geometry": {"type": "Point", "coordinates": [103.8129044003925, 14.65861689959694]}, "properties": {"name": "SANGKHA", "name_th": "สังขะ", "capacity_mw": 0.0, "status": "operating"}}, {"type": "Feature", "geometry": {"type": "Point", "coordinates": [103.50767031242344, 14.910339880570973]}, "properties": {"name": "SURIN 1", "name_th": "สุรินทร์ 1", "capacity_mw": 0.0, "status": "operating"}}, {"type": "Feature", "geometry": {"type": "Point", "coordinates": [103.51748349151757, 14.904780064779244]}, "properties": {"name": "SURIN 2", "name_th": "สุรินทร์ 2", "capacity_mw": 0.0, "status": "operating"}}, {"type": "Feature", "geometry": {"type": "Point", "coordinates": [102.41663800036791, 15.298591000396714]}, "properties": {"name": "KHONG", "name_th": "คง", "capacity_mw": 0.0, "status": "operating"}}, {"type": "Feature", "geometry": {"type": "Point", "coordinates": [102.10206098427018, 14.99436978971142]}, "properties": {"name": "NAKHON RATCHASIMA 1", "name_th": "นครราชสีมา 1", "capacity_mw": 0.0, "status": "operating"}}, {"type": "Feature", "geometry": {"type": "Point", "coordinates": [102.02035400872703, 14.951198972442688]}, "properties": {"name": "NAKHON RATCHASIMA 2", "name_th": "นครราชสีมา 2", "capacity_mw": 0.0, "status": "operating"}}, {"type": "Feature", "geometry": {"type": "Point", "coordinates": [102.09112101882043, 14.74223806408982]}, "properties": {"name": "NAKHON RATCHASIMA 3", "name_th": "นครราชสีมา 3", "capacity_mw": 0.0, "status": "operating"}}, {"type": "Feature", "geometry": {"type": "Point", "coordinates": [101.44655515240275, 14.699946260070169]}, "properties": {"name": "PAK CHONG", "name_th": "ปากช่อง", "capacity_mw": 0.0, "status": "operating"}}, {"type": "Feature", "geometry": {"type": "Point", "coordinates": [101.77138236584766, 14.870880809448327]}, "properties": {"name": "SIKHIU", "name_th": "สีคิ้ว", "capacity_mw": 0.0, "status": "operating"}}, {"type": "Feature", "geometry": {"type": "Point", "coordinates": [101.78250791435958, 14.871622213654405]}, "properties": {"name": "SIKHIU 2", "name_th": "สีคิ้ว 2", "capacity_mw": 0.0, "status": "operating"}}, {"type": "Feature", "geometry": {"type": "Point", "coordinates": [100.43284587791202, 6.995510677812566]}, "properties": {"name": "HAT YAI 1", "name_th": "หาดใหญ่ 1", "capacity_mw": 0.0, "status": "operating"}}, {"type": "Feature", "geometry": {"type": "Point", "coordinates": [100.49074692129652, 6.9679378469288435]}, "properties": {"name": "HAT YAI 2", "name_th": "หาดใหญ่ 2", "capacity_mw": 0.0, "status": "operating"}}, {"type": "Feature", "geometry": {"type": "Point", "coordinates": [101.2631022731075, 6.845759546258138]}, "properties": {"name": "PATTANI", "name_th": "ปัตตานี", "capacity_mw": 0.0, "status": "operating"}}, {"type": "Feature", "geometry": {"type": "Point", "coordinates": [100.02761291667447, 7.598921421354721]}, "properties": {"name": "PHATTHALUNG", "name_th": "พัทลุง", "capacity_mw": 0.0, "status": "operating"}}, {"type": "Feature", "geometry": {"type": "Point", "coordinates": [100.56911214809593, 7.116534815955607]}, "properties": {"name": "SONGKHLA", "name_th": "สงขลา", "capacity_mw": 0.0, "status": "operating"}}, {"type": "Feature", "geometry": {"type": "Point", "coordinates": [100.45225523291198, 6.715723944212427]}, "properties": {"name": "KHLONG NGAE", "name_th": "คลองแงะ", "capacity_mw": 0.0, "status": "operating"}}, {"type": "Feature", "geometry": {"type": "Point", "coordinates": [100.4018669723308, 6.632999392801951]}, "properties": {"name": "SADAO", "name_th": "สะเดา", "capacity_mw": 0.0, "status": "operating"}}, {"type": "Feature", "geometry": {"type": "Point", "coordinates": [100.07102384196934, 6.68572849230534]}, "properties": {"name": "SATUN", "name_th": "สตูล", "capacity_mw": 0.0, "status": "operating"}}, {"type": "Feature", "geometry": {"type": "Point", "coordinates": [99.58359410549818, 7.688460480977392]}, "properties": {"name": "LAM POO RA", "name_th": "ลำภูรา", "capacity_mw": 0.0, "status": "operating"}}, {"type": "Feature", "geometry": {"type": "Point", "coordinates": [99.96513307901266, 8.40026312678142]}, "properties": {"name": "NAKHON SI THAMMARAT", "name_th": "นครศรีธรรมราช", "capacity_mw": 0.0, "status": "operating"}}, {"type": "Feature", "geometry": {"type": "Point", "coordinates": [99.66959026062399, 8.130875522557785]}, "properties": {"name": "THUNG SONG", "name_th": "ทุ่งสง", "capacity_mw": 0.0, "status": "operating"}}, {"type": "Feature", "geometry": {"type": "Point", "coordinates": [100.3565312359499, 7.8159717518601095]}, "properties": {"name": "RANOT", "name_th": "ระโนด", "capacity_mw": 0.0, "status": "operating"}}, {"type": "Feature", "geometry": {"type": "Point", "coordinates": [99.04556758387243, 7.993322610946483]}, "properties": {"name": "KRABI", "name_th": "กระบี่", "capacity_mw": 0.0, "status": "operating"}}, {"type": "Feature", "geometry": {"type": "Point", "coordinates": [98.51580405395535, 8.517536648872372]}, "properties": {"name": "PHANGNGA", "name_th": "พังงา", "capacity_mw": 0.0, "status": "operating"}}, {"type": "Feature", "geometry": {"type": "Point", "coordinates": [98.35765635123863, 8.84297339658465]}, "properties": {"name": "TAKUA PA", "name_th": "ตะกั่วป่า", "capacity_mw": 0.0, "status": "operating"}}, {"type": "Feature", "geometry": {"type": "Point", "coordinates": [98.39300438559358, 7.916385794413234]}, "properties": {"name": "PHUKET 1", "name_th": "ภูเก็ต 1", "capacity_mw": 0.0, "status": "operating"}}, {"type": "Feature", "geometry": {"type": "Point", "coordinates": [98.34238872331154, 7.860800275168285]}, "properties": {"name": "PHUKET 2", "name_th": "ภูเก็ต 2", "capacity_mw": 0.0, "status": "operating"}}, {"type": "Feature", "geometry": {"type": "Point", "coordinates": [98.36738381297117, 7.961787868793941]}, "properties": {"name": "PHUKET 3", "name_th": "ภูเก็ต 3", "capacity_mw": 0.0, "status": "operating"}}, {"type": "Feature", "geometry": {"type": "Point", "coordinates": [99.85991659674394, 9.236390882693138]}, "properties": {"name": "KHANOM", "name_th": "ขนอม", "capacity_mw": 0.0, "status": "operating"}}, {"type": "Feature", "geometry": {"type": "Point", "coordinates": [99.34301089312402, 9.086905822192243]}, "properties": {"name": "BAN DON", "name_th": "บ้านดอน", "capacity_mw": 0.0, "status": "operating"}}, {"type": "Feature", "geometry": {"type": "Point", "coordinates": [99.25728424970774, 9.085869706168825]}, "properties": {"name": "PHUNPHIN", "name_th": "พุนพิน", "capacity_mw": 0.0, "status": "operating"}}, {"type": "Feature", "geometry": {"type": "Point", "coordinates": [99.22236974944296, 9.073631955343327]}, "properties": {"name": "SURAT THANI", "name_th": "สุราษฎร์ธานี", "capacity_mw": 0.0, "status": "operating"}}, {"type": "Feature", "geometry": {"type": "Point", "coordinates": [99.11690333384314, 10.501316438021245]}, "properties": {"name": "CHUMPHON", "name_th": "ชุมพร", "capacity_mw": 0.0, "status": "operating"}}, {"type": "Feature", "geometry": {"type": "Point", "coordinates": [99.0643451773445, 10.015970669686988]}, "properties": {"name": "LANG SUAN", "name_th": "หลังสวน", "capacity_mw": 0.0, "status": "operating"}}, {"type": "Feature", "geometry": {"type": "Point", "coordinates": [98.5945603851023, 9.743001327726407]}, "properties": {"name": "RANONG", "name_th": "ระนอง", "capacity_mw": 0.0, "status": "operating"}}, {"type": "Feature", "geometry": {"type": "Point", "coordinates": [101.7895453117911, 6.420811121175335]}, "properties": {"name": "NARATHIWAT", "name_th": "นราธิวาส", "capacity_mw": 0.0, "status": "operating"}}, {"type": "Feature", "geometry": {"type": "Point", "coordinates": [101.91482201313441, 6.023995318940348]}, "properties": {"name": "SUNGAI KOLOK", "name_th": "สุไหงโกลก", "capacity_mw": 0.0, "status": "operating"}}, {"type": "Feature", "geometry": {"type": "Point", "coordinates": [101.2676887160251, 6.4987678533177995]}, "properties": {"name": "YALA 1", "name_th": "ยะลา 1", "capacity_mw": 0.0, "status": "operating"}}, {"type": "Feature", "geometry": {"type": "Point", "coordinates": [101.26676070226084, 6.475920280186581]}, "properties": {"name": "YALA 2", "name_th": "ยะลา 2", "capacity_mw": 0.0, "status": "operating"}}, {"type": "Feature", "geometry": {"type": "Point", "coordinates": [99.54148019994399, 14.02468560048386]}, "properties": {"name": "KANCHANABURI", "name_th": "กาญจนบุรี", "capacity_mw": 0.0, "status": "operating"}}, {"type": "Feature", "geometry": {"type": "Point", "coordinates": [99.49845916445854, 14.126583458031368]}, "properties": {"name": "KANCHANABURI 2", "name_th": "กาญจนบุรี 2", "capacity_mw": 0.0, "status": "operating"}}, {"type": "Feature", "geometry": {"type": "Point", "coordinates": [99.62842897903919, 13.975872853534879]}, "properties": {"name": "THA MUANG", "name_th": "ท่าม่วง", "capacity_mw": 0.0, "status": "operating"}}, {"type": "Feature", "geometry": {"type": "Point", "coordinates": [99.8689985637451, 13.853305592535714]}, "properties": {"name": "BAN PONG 2", "name_th": "บ้านโป่ง 2", "capacity_mw": 0.0, "status": "operating"}}, {"type": "Feature", "geometry": {"type": "Point", "coordinates": [99.9590095668374, 13.790821496198344]}, "properties": {"name": "BAN PONG 1", "name_th": "บ้านโป่ง 1", "capacity_mw": 0.0, "status": "operating"}}, {"type": "Feature", "geometry": {"type": "Point", "coordinates": [99.99235130007335, 13.987406499989586]}, "properties": {"name": "KAMPHAENG SAEN", "name_th": "กำแพงแสน", "capacity_mw": 0.0, "status": "operating"}}, {"type": "Feature", "geometry": {"type": "Point", "coordinates": [100.29202770038906, 13.69017460008456]}, "properties": {"name": "SAM PHRAN 1", "name_th": "สามพราน 1", "capacity_mw": 0.0, "status": "operating"}}, {"type": "Feature", "geometry": {"type": "Point", "coordinates": [100.22794532073397, 13.73163792108532]}, "properties": {"name": "SAM PHRAN 2", "name_th": "สามพราน 2", "capacity_mw": 0.0, "status": "operating"}}, {"type": "Feature", "geometry": {"type": "Point", "coordinates": [100.18844531202075, 13.749424760747974]}, "properties": {"name": "NAKHON CHAISI", "name_th": "นครชัยศรี", "capacity_mw": 0.0, "status": "operating"}}, {"type": "Feature", "geometry": {"type": "Point", "coordinates": [100.2819824001532, 13.593515399824593]}, "properties": {"name": "SAMUT SAKHON 1", "name_th": "สมุทรสาคร 1", "capacity_mw": 0.0, "status": "operating"}}, {"type": "Feature", "geometry": {"type": "Point", "coordinates": [100.33229439986255, 13.596771400044629]}, "properties": {"name": "SAMUT SAKHON 3", "name_th": "สมุทรสาคร 3", "capacity_mw": 0.0, "status": "operating"}}, {"type": "Feature", "geometry": {"type": "Point", "coordinates": [100.23014269973939, 13.541044200145118]}, "properties": {"name": "SAMUT SAKHON 2", "name_th": "สมุทรสาคร 2", "capacity_mw": 0.0, "status": "operating"}}, {"type": "Feature", "geometry": {"type": "Point", "coordinates": [100.13149195868294, 13.51140036606813]}, "properties": {"name": "SAMUT SAKHON 4", "name_th": "สมุทรสาคร 4", "capacity_mw": 0.0, "status": "operating"}}, {"type": "Feature", "geometry": {"type": "Point", "coordinates": [99.7998259128333, 13.528850236967045]}, "properties": {"name": "RATCHABURI 1", "name_th": "ราชบุรี 1", "capacity_mw": 0.0, "status": "operating"}}, {"type": "Feature", "geometry": {"type": "Point", "coordinates": [100.06112943023807, 13.444608286756775]}, "properties": {"name": "SAMUT SONGKHRAM", "name_th": "สมุทรสงคราม", "capacity_mw": 0.0, "status": "operating"}}, {"type": "Feature", "geometry": {"type": "Point", "coordinates": [99.79054561554574, 13.504314984623727]}, "properties": {"name": "RATCHABURI 2", "name_th": "ราชบุรี 2", "capacity_mw": 0.0, "status": "operating"}}, {"type": "Feature", "geometry": {"type": "Point", "coordinates": [99.95735659291033, 12.815618648409618]}, "properties": {"name": "CHA-AM", "name_th": "ชะอำ", "capacity_mw": 0.0, "status": "operating"}}, {"type": "Feature", "geometry": {"type": "Point", "coordinates": [99.91918393548228, 12.570479448999825]}, "properties": {"name": "HUA HIN", "name_th": "หัวหิน", "capacity_mw": 0.0, "status": "operating"}}, {"type": "Feature", "geometry": {"type": "Point", "coordinates": [99.94220491310396, 13.090643736299306]}, "properties": {"name": "PHETCHABURI", "name_th": "เพชรบุรี", "capacity_mw": 0.0, "status": "operating"}}, {"type": "Feature", "geometry": {"type": "Point", "coordinates": [99.88366659958625, 12.359176999966381]}, "properties": {"name": "PRAN BURI", "name_th": "ปราณบุรี", "capacity_mw": 0.0, "status": "operating"}}, {"type": "Feature", "geometry": {"type": "Point", "coordinates": [99.50712860013816, 11.406584799734173]}, "properties": {"name": "BANG SAPHAN", "name_th": "บางสะพาน", "capacity_mw": 0.0, "status": "operating"}}, {"type": "Feature", "geometry": {"type": "Point", "coordinates": [99.73701880262342, 11.83341100894268]}, "properties": {"name": "PRACHUAP KHIRI KHAN", "name_th": "ประจวบคีรีขันธ์", "capacity_mw": 0.0, "status": "operating"}}]}